[
    {
        "schoolid":1,
        "name": "Sunnydale High School",
        "Address": "123 Maple Street, Sunnydale, CA 90210",
        "Latitute": "34.0522",
        "Longitude": "-118.2437"
    },
    { 
        "schoolid":2,
        "name": "Greenwood Academy",
        "Address": "456 Oak Avenue, Greenwood, TX 75001",
        "Latitude": "32.7767",
        "Longitude": "-96.7970"
    },
    {
        "schoolid":3,
        "name": "Riverbank Middle School",
        "Address": "789 River Road, Riverbank, IL 60614",
        "Latitude": "41.8781",
        "Longitude": "-87.6298"
    },
    {
        "schoolid":4,
        "name": "Hillcrest Primary School",
        "Address": "321 Hillcrest Drive, Hillcrest, FL 33101",
        "Latitude": "25.7617",
        "Longitude": "-80.1918"
    },
    {
        "schoolid":5,
        "name": "Lakeside High School",
        "Address": "654 Lakeside Boulevard, Lakeside, MI 48103",
        "Latitude": "42.3314",
        "Longitude": "-83.0458"
    },
    {
        "schoolid":6,
        "name": "Bright Future Academy",
        "Address": "987 Bright Avenue, Brightville, NY 10001",
        "Latitude": "40.7128",
        "Longitude": "-74.0060"
    }
]
